[
    {
        "description":  "test",
        "type":  "test",
        "poi_id":  508,
        "lon":  1,
        "region":  "test",
        "name":  "test",
        "country":  "test",
        "lat":  1
    },
    {
        "description":  "A very interesting place",
        "type":  "city",
        "poi_id":  509,
        "lon":  -74,
        "region":  "NY",
        "name":  "New York",
        "country":  "USA",
        "lat":  40.75
    },
    {
        "description":  "A very interesting place",
        "type":  "city",
        "poi_id":  510,
        "lon":  -0.1,
        "region":  "London",
        "name":  "London",
        "country":  "UK",
        "lat":  51.51
    },
    {
        "description":  "A very interesting place",
        "type":  "city",
        "poi_id":  511,
        "lon":  -1.25,
        "region":  "Oxfordshire",
        "name":  "Oxford",
        "country":  "UK",
        "lat":  51.75
    },
    {
        "description":  "A very interesting place",
        "type":  "city",
        "poi_id":  512,
        "lon":  -2.36,
        "region":  "Somerset",
        "name":  "Bath",
        "country":  "UK",
        "lat":  51.38
    },
    {
        "description":  "A very interesting place",
        "type":  "city",
        "poi_id":  513,
        "lon":  2.35,
        "region":  "Paris",
        "name":  "Paris",
        "country":  "France",
        "lat":  48.86
    },
    {
        "description":  "A very interesting place",
        "type":  "city",
        "poi_id":  514,
        "lon":  12.48,
        "region":  "Rome",
        "name":  "Rome",
        "country":  "Italy",
        "lat":  41.89
    },
    {
        "description":  "A very interesting place",
        "type":  "city",
        "poi_id":  515,
        "lon":  -122.4,
        "region":  "California",
        "name":  "San Francisco",
        "country":  "USA",
        "lat":  37.78
    },
    {
        "description":  "A very interesting place",
        "type":  "city",
        "poi_id":  516,
        "lon":  -118.2,
        "region":  "California",
        "name":  "Los Angeles",
        "country":  "USA",
        "lat":  34.05
    },
    {
        "description":  "A very interesting place",
        "type":  "city",
        "poi_id":  517,
        "lon":  8.75,
        "region":  "Nordrhein_Westfalen",
        "name":  "Paderborn",
        "country":  "Germany",
        "lat":  51.72
    },
    {
        "description":  "A very interesting place",
        "type":  "city",
        "poi_id":  518,
        "lon":  9.74,
        "region":  "Niedersachsen",
        "name":  "Hannover",
        "country":  "Germany",
        "lat":  52.38
    },
    {
        "description":  "A very interesting place",
        "type":  "city",
        "poi_id":  519,
        "lon":  6.96,
        "region":  "Nordrhein_Westfalen",
        "name":  "Koeln",
        "country":  "Germany",
        "lat":  50.94
    },
    {
        "description":  "A very interesting place",
        "type":  "city",
        "poi_id":  520,
        "lon":  7.85,
        "region":  "Baden-Wuerttemberg",
        "name":  "Freiburg",
        "country":  "Germany",
        "lat":  48
    },
    {
        "description":  "A very interesting place",
        "type":  "town",
        "poi_id":  521,
        "lon":  11.1,
        "region":  "Bayern",
        "name":  "Garmisch-Partenkirchen",
        "country":  "Germany",
        "lat":  47.49
    },
    {
        "description":  "A very interesting place",
        "type":  "town",
        "poi_id":  522,
        "lon":  7.13,
        "region":  "Nordrhein_Westfalen",
        "name":  "Bergisch Gladbach",
        "country":  "Germany",
        "lat":  50.99
    },
    {
        "description":  "A very interesting place",
        "type":  "town",
        "poi_id":  523,
        "lon":  -0.937472,
        "region":  "Hampshire",
        "name":  "Petersfield",
        "country":  "UK",
        "lat":  51.0038
    },
    {
        "description":  "A very interesting place",
        "type":  "town",
        "poi_id":  524,
        "lon":  -1.57484,
        "region":  "Hampshire",
        "name":  "Lyndhurst",
        "country":  "UK",
        "lat":  50.8728
    },
    {
        "description":  "A very interesting place",
        "type":  "town",
        "poi_id":  525,
        "lon":  -1.65519,
        "region":  "Hampshire",
        "name":  "New Milton",
        "country":  "UK",
        "lat":  50.7531
    },
    {
        "description":  "A very interesting place",
        "type":  "city",
        "poi_id":  526,
        "lon":  -1.4042,
        "region":  "Hampshire",
        "name":  "Southampton",
        "country":  "UK",
        "lat":  50.9035
    },
    {
        "description":  "A very interesting place",
        "type":  "town",
        "poi_id":  527,
        "lon":  -1.49973,
        "region":  "Hampshire",
        "name":  "Romsey",
        "country":  "UK",
        "lat":  50.9895
    },
    {
        "description":  "A very interesting place",
        "type":  "town",
        "poi_id":  528,
        "lon":  -1.30714,
        "region":  "Hampshire",
        "name":  "Hedge End",
        "country":  "UK",
        "lat":  50.9154
    },
    {
        "description":  "A very interesting place",
        "type":  "town",
        "poi_id":  529,
        "lon":  -1.40326,
        "region":  "Hampshire",
        "name":  "Hythe",
        "country":  "UK",
        "lat":  50.8694
    },
    {
        "description":  "A very interesting place",
        "type":  "town",
        "poi_id":  530,
        "lon":  -0.972413,
        "region":  "Hampshire",
        "name":  "Alton",
        "country":  "UK",
        "lat":  51.1456
    },
    {
        "description":  "A very interesting place",
        "type":  "city",
        "poi_id":  531,
        "lon":  -1.0744,
        "region":  "Hampshire",
        "name":  "Portsmouth",
        "country":  "UK",
        "lat":  50.8065
    },
    {
        "description":  "A very interesting place",
        "type":  "town",
        "poi_id":  532,
        "lon":  -1.79142,
        "region":  "Wiltshire",
        "name":  "Ringwood",
        "country":  "UK",
        "lat":  50.8469
    },
    {
        "description":  "A very interesting place",
        "type":  "town",
        "poi_id":  533,
        "lon":  -1.79235,
        "region":  "Wiltshire",
        "name":  "Fordingbridge",
        "country":  "UK",
        "lat":  50.9266
    },
    {
        "description":  "A very interesting place",
        "type":  "town",
        "poi_id":  534,
        "lon":  -0.979901,
        "region":  "Hampshire",
        "name":  "Havant",
        "country":  "UK",
        "lat":  50.8527
    },
    {
        "description":  "A very interesting place",
        "type":  "town",
        "poi_id":  535,
        "lon":  -1.47935,
        "region":  "Hampshire",
        "name":  "Andover",
        "country":  "UK",
        "lat":  51.2078
    },
    {
        "description":  "A very interesting place",
        "type":  "town",
        "poi_id":  536,
        "lon":  -0.756496,
        "region":  "Surrey",
        "name":  "Farnborough",
        "country":  "UK",
        "lat":  51.2941
    },
    {
        "description":  "A very interesting place",
        "type":  "town",
        "poi_id":  537,
        "lon":  -0.937185,
        "region":  "Hampshire",
        "name":  "Emsworth",
        "country":  "UK",
        "lat":  50.8449
    },
    {
        "description":  "A very interesting place",
        "type":  "town",
        "poi_id":  538,
        "lon":  -1.13834,
        "region":  "Hampshire",
        "name":  "Tadley",
        "country":  "UK",
        "lat":  51.3531
    },
    {
        "description":  "A very interesting place",
        "type":  "town",
        "poi_id":  539,
        "lon":  -1.03044,
        "region":  "Hampshire",
        "name":  "Waterlooville",
        "country":  "UK",
        "lat":  50.8803
    },
    {
        "description":  "A very interesting place",
        "type":  "town",
        "poi_id":  540,
        "lon":  -0.939688,
        "region":  "Hampshire",
        "name":  "Odiham",
        "country":  "UK",
        "lat":  51.2535
    },
    {
        "description":  "A very interesting place",
        "type":  "town",
        "poi_id":  541,
        "lon":  -0.963113,
        "region":  "Hampshire",
        "name":  "Hook",
        "country":  "UK",
        "lat":  51.2816
    },
    {
        "description":  "A very interesting place",
        "type":  "town",
        "poi_id":  542,
        "lon":  -1.35282,
        "region":  "Hampshire",
        "name":  "Eastleigh",
        "country":  "UK",
        "lat":  50.9676
    },
    {
        "description":  "A very interesting place",
        "type":  "town",
        "poi_id":  543,
        "lon":  -0.974811,
        "region":  "Hampshire",
        "name":  "South Hayling",
        "country":  "UK",
        "lat":  50.7864
    },
    {
        "description":  "A very interesting place",
        "type":  "town",
        "poi_id":  544,
        "lon":  -0.83532,
        "region":  "Surrey",
        "name":  "Fleet",
        "country":  "UK",
        "lat":  51.2749
    },
    {
        "description":  "A very interesting place",
        "type":  "town",
        "poi_id":  545,
        "lon":  -1.12649,
        "region":  "Hampshire",
        "name":  "Gosport",
        "country":  "UK",
        "lat":  50.793
    },
    {
        "description":  "A very interesting place",
        "type":  "town",
        "poi_id":  546,
        "lon":  -1.0862,
        "region":  "Hampshire",
        "name":  "Basingstoke",
        "country":  "UK",
        "lat":  51.2628
    },
    {
        "description":  "A very interesting place",
        "type":  "town",
        "poi_id":  547,
        "lon":  -0.859336,
        "region":  "Surrey",
        "name":  "Bordon",
        "country":  "UK",
        "lat":  51.1091
    },
    {
        "description":  "A very interesting place",
        "type":  "town",
        "poi_id":  548,
        "lon":  -1.33843,
        "region":  "Hampshire",
        "name":  "Whitchurch",
        "country":  "UK",
        "lat":  51.2299
    },
    {
        "description":  "A very interesting place",
        "type":  "town",
        "poi_id":  549,
        "lon":  -1.54269,
        "region":  "Hampshire",
        "name":  "Lymington",
        "country":  "UK",
        "lat":  50.7584
    },
    {
        "description":  "A very interesting place",
        "type":  "town",
        "poi_id":  550,
        "lon":  -0.77884,
        "region":  "Surrey",
        "name":  "Blackwater",
        "country":  "UK",
        "lat":  51.3306
    },
    {
        "description":  "A very interesting place",
        "type":  "town",
        "poi_id":  551,
        "lon":  -1.49637,
        "region":  "Hampshire",
        "name":  "Totton and Eling",
        "country":  "UK",
        "lat":  50.9177
    },
    {
        "description":  "A very interesting place",
        "type":  "town",
        "poi_id":  552,
        "lon":  -0.899714,
        "region":  "Surrey",
        "name":  "Hartley Wintney",
        "country":  "UK",
        "lat":  51.3062
    },
    {
        "description":  "A very interesting place",
        "type":  "city",
        "poi_id":  553,
        "lon":  -1.31355,
        "region":  "Hampshire",
        "name":  "Winchester",
        "country":  "UK",
        "lat":  51.0617
    },
    {
        "description":  "A very interesting place",
        "type":  "town",
        "poi_id":  554,
        "lon":  -1.38331,
        "region":  "Hampshire",
        "name":  "Chandlers Ford",
        "country":  "UK",
        "lat":  50.9828
    },
    {
        "description":  "A very interesting place",
        "type":  "town",
        "poi_id":  555,
        "lon":  -1.21801,
        "region":  "Hampshire",
        "name":  "Bishops Waltham",
        "country":  "UK",
        "lat":  50.9543
    },
    {
        "description":  "A very interesting place",
        "type":  "town",
        "poi_id":  556,
        "lon":  -0.756526,
        "region":  "Surrey",
        "name":  "Aldershot",
        "country":  "UK",
        "lat":  51.2519
    },
    {
        "description":  "A very interesting place",
        "type":  "town",
        "poi_id":  557,
        "lon":  -1.15854,
        "region":  "Hampshire",
        "name":  "New Alresford",
        "country":  "UK",
        "lat":  51.0854
    },
    {
        "description":  "A very interesting place",
        "type":  "town",
        "poi_id":  558,
        "lon":  -1.17925,
        "region":  "Hampshire",
        "name":  "Fareham",
        "country":  "UK",
        "lat":  50.854
    },
    {
        "description":  "A very interesting place",
        "type":  "town",
        "poi_id":  581,
        "lon":  -1.62337,
        "region":  "Hampshire",
        "name":  "Ludgershall",
        "country":  "UK",
        "lat":  51.257
    },
    {
        "description":  "A very interesting place",
        "type":  "town",
        "poi_id":  582,
        "lon":  -1.72895,
        "region":  "Wiltshire",
        "name":  "Marlborough",
        "country":  "UK",
        "lat":  51.421
    },
    {
        "description":  "A very interesting place",
        "type":  "town",
        "poi_id":  583,
        "lon":  -1.8628,
        "region":  "Wiltshire",
        "name":  "Wilton",
        "country":  "UK",
        "lat":  51.0804
    },
    {
        "description":  "A very interesting place",
        "type":  "town",
        "poi_id":  584,
        "lon":  -1.77511,
        "region":  "Wiltshire",
        "name":  "Amesbury",
        "country":  "UK",
        "lat":  51.1727
    },
    {
        "description":  "A very interesting place",
        "type":  "town",
        "poi_id":  585,
        "lon":  -1.99266,
        "region":  "Wiltshire",
        "name":  "Devizes",
        "country":  "UK",
        "lat":  51.3508
    },
    {
        "description":  "A very interesting place",
        "type":  "city",
        "poi_id":  586,
        "lon":  -1.79512,
        "region":  "Wiltshire",
        "name":  "Salisbury",
        "country":  "UK",
        "lat":  51.0737
    },
    {
        "description":  "A very interesting place",
        "type":  "town",
        "poi_id":  674,
        "lon":  -0.709777,
        "region":  "Sussex",
        "name":  "Haslemere",
        "country":  "UK",
        "lat":  51.0876
    },
    {
        "description":  "A very interesting place",
        "type":  "town",
        "poi_id":  675,
        "lon":  -0.556445,
        "region":  "Surrey",
        "name":  "Woking",
        "country":  "UK",
        "lat":  51.3202
    },
    {
        "description":  "A very interesting place",
        "type":  "town",
        "poi_id":  676,
        "lon":  -0.511044,
        "region":  "Surrey",
        "name":  "Staines-upon-Thames",
        "country":  "UK",
        "lat":  51.434
    },
    {
        "description":  "A very interesting place",
        "type":  "town",
        "poi_id":  677,
        "lon":  -0.798015,
        "region":  "Surrey",
        "name":  "Farnham",
        "country":  "UK",
        "lat":  51.2143
    },
    {
        "description":  "A very interesting place",
        "type":  "town",
        "poi_id":  678,
        "lon":  -0.614907,
        "region":  "Surrey",
        "name":  "Godalming",
        "country":  "UK",
        "lat":  51.1858
    },
    {
        "description":  "A very interesting place",
        "type":  "town",
        "poi_id":  679,
        "lon":  -0.740629,
        "region":  "Surrey",
        "name":  "Camberley",
        "country":  "UK",
        "lat":  51.3394
    },
    {
        "description":  "A very interesting place",
        "type":  "town",
        "poi_id":  680,
        "lon":  -0.547309,
        "region":  "Surrey",
        "name":  "Egham",
        "country":  "UK",
        "lat":  51.4313
    },
    {
        "description":  "A very interesting place",
        "type":  "town",
        "poi_id":  682,
        "lon":  -0.565362,
        "region":  "Surrey",
        "name":  "Guildford",
        "country":  "UK",
        "lat":  51.2353
    },
    {
        "description":  "A very interesting place",
        "type":  "town",
        "poi_id":  683,
        "lon":  -0.504125,
        "region":  "Surrey",
        "name":  "Chertsey",
        "country":  "UK",
        "lat":  51.3884
    },
    {
        "description":  "A very interesting place",
        "type":  "town",
        "poi_id":  732,
        "lon":  -0.536691,
        "region":  "Sussex",
        "name":  "Littlehampton",
        "country":  "UK",
        "lat":  50.8122
    },
    {
        "description":  "A very interesting place",
        "type":  "town",
        "poi_id":  733,
        "lon":  -0.610109,
        "region":  "Sussex",
        "name":  "Petworth",
        "country":  "UK",
        "lat":  50.9863
    },
    {
        "description":  "A very interesting place",
        "type":  "town",
        "poi_id":  734,
        "lon":  -0.742806,
        "region":  "Sussex",
        "name":  "Midhurst",
        "country":  "UK",
        "lat":  50.9819
    },
    {
        "description":  "A very interesting place",
        "type":  "city",
        "poi_id":  735,
        "lon":  -0.778782,
        "region":  "Sussex",
        "name":  "Chichester",
        "country":  "UK",
        "lat":  50.8367
    },
    {
        "description":  "A very interesting place",
        "type":  "town",
        "poi_id":  736,
        "lon":  -0.79229,
        "region":  "Sussex",
        "name":  "Selsey",
        "country":  "UK",
        "lat":  50.7328
    },
    {
        "description":  "A very interesting place",
        "type":  "town",
        "poi_id":  737,
        "lon":  -0.673072,
        "region":  "Sussex",
        "name":  "Bognor Regis",
        "country":  "UK",
        "lat":  50.7835
    },
    {
        "description":  "A very interesting place",
        "type":  "town",
        "poi_id":  738,
        "lon":  -0.55345,
        "region":  "Sussex",
        "name":  "Arundel",
        "country":  "UK",
        "lat":  50.8541
    },
    {
        "description":  "A very interesting place",
        "type":  "pub",
        "poi_id":  739,
        "lon":  -1.31197,
        "region":  "Hampshire",
        "name":  "Vine Inn",
        "country":  "UK",
        "lat":  50.8806
    },
    {
        "description":  "A very interesting place",
        "type":  "pub",
        "poi_id":  740,
        "lon":  -1.31733,
        "region":  "Hampshire",
        "name":  "Fox and Hounds/Lone Barn",
        "country":  "UK",
        "lat":  50.8829
    },
    {
        "description":  "A very interesting place",
        "type":  "pub",
        "poi_id":  741,
        "lon":  -1.3043,
        "region":  "Hampshire",
        "name":  "Jolly Sailor",
        "country":  "UK",
        "lat":  50.8818
    },
    {
        "description":  "A very interesting place",
        "type":  "pub",
        "poi_id":  742,
        "lon":  -1.36139,
        "region":  "Hampshire",
        "name":  "Millers Pond",
        "country":  "UK",
        "lat":  50.8977
    },
    {
        "description":  "A very interesting place",
        "type":  "pub",
        "poi_id":  743,
        "lon":  -1.36152,
        "region":  "Hampshire",
        "name":  "White Swan",
        "country":  "UK",
        "lat":  50.9381
    },
    {
        "description":  "A very interesting place",
        "type":  "pub",
        "poi_id":  744,
        "lon":  -1.35281,
        "region":  "Hampshire",
        "name":  "Two Brothers",
        "country":  "UK",
        "lat":  50.9326
    },
    {
        "description":  "A very interesting place",
        "type":  "pub",
        "poi_id":  745,
        "lon":  -1.43167,
        "region":  "Hampshire",
        "name":  "The Royal Oak",
        "country":  "UK",
        "lat":  50.8265
    },
    {
        "description":  "A very interesting place",
        "type":  "pub",
        "poi_id":  746,
        "lon":  -1.36811,
        "region":  "Hampshire",
        "name":  "The Langley Tavern",
        "country":  "UK",
        "lat":  50.8074
    },
    {
        "description":  "A very interesting place",
        "type":  "pub",
        "poi_id":  747,
        "lon":  -1.39856,
        "region":  "Hampshire",
        "name":  "The Bridge",
        "country":  "UK",
        "lat":  50.8259
    },
    {
        "description":  "A very interesting place",
        "type":  "pub",
        "poi_id":  748,
        "lon":  -1.48754,
        "region":  "Hampshire",
        "name":  "Salmon Leap",
        "country":  "UK",
        "lat":  50.9244
    },
    {
        "description":  "A very interesting place",
        "type":  "pub",
        "poi_id":  749,
        "lon":  -1.40201,
        "region":  "Hampshire",
        "name":  "Cleveland Bay",
        "country":  "UK",
        "lat":  50.9783
    },
    {
        "description":  "A very interesting place",
        "type":  "pub",
        "poi_id":  750,
        "lon":  -1.37453,
        "region":  "Hampshire",
        "name":  "Fleming Arms",
        "country":  "UK",
        "lat":  50.9423
    },
    {
        "description":  "A very interesting place",
        "type":  "pub",
        "poi_id":  751,
        "lon":  -1.32791,
        "region":  "Hampshire",
        "name":  "Dog and Crook",
        "country":  "UK",
        "lat":  50.9931
    },
    {
        "description":  "A very interesting place",
        "type":  "pub",
        "poi_id":  752,
        "lon":  -1.38775,
        "region":  "Hampshire",
        "name":  "Stoneham Arms",
        "country":  "UK",
        "lat":  50.9443
    },
    {
        "description":  "A very interesting place",
        "type":  "pub",
        "poi_id":  753,
        "lon":  -1.3894,
        "region":  "Hampshire",
        "name":  "Travellers Rest",
        "country":  "UK",
        "lat":  50.8553
    },
    {
        "description":  "A very interesting place",
        "type":  "pub",
        "poi_id":  754,
        "lon":  -1.39137,
        "region":  "Hampshire",
        "name":  "The Forest Home",
        "country":  "UK",
        "lat":  50.842
    },
    {
        "description":  "A very interesting place",
        "type":  "pub",
        "poi_id":  755,
        "lon":  -1.34,
        "region":  "Hampshire",
        "name":  "The Cottage",
        "country":  "UK",
        "lat":  50.88
    },
    {
        "description":  "A very interesting place",
        "type":  "pub",
        "poi_id":  756,
        "lon":  -1.33998,
        "region":  "Hampshire",
        "name":  "The Roll Call",
        "country":  "UK",
        "lat":  50.8811
    },
    {
        "description":  "A very interesting place",
        "type":  "pub",
        "poi_id":  757,
        "lon":  -1.3627,
        "region":  "Hampshire",
        "name":  "The Swan",
        "country":  "UK",
        "lat":  50.8957
    },
    {
        "description":  "A very interesting place",
        "type":  "pub",
        "poi_id":  758,
        "lon":  -1.35289,
        "region":  "Hampshire",
        "name":  "Chamberlayne Arms",
        "country":  "UK",
        "lat":  50.9052
    },
    {
        "description":  "A very interesting place",
        "type":  "pub",
        "poi_id":  759,
        "lon":  -1.37386,
        "region":  "Hampshire",
        "name":  "The Manor",
        "country":  "UK",
        "lat":  50.9007
    },
    {
        "description":  "A very interesting place",
        "type":  "pub",
        "poi_id":  760,
        "lon":  -1.35668,
        "region":  "Hampshire",
        "name":  "Spike Islander",
        "country":  "UK",
        "lat":  50.9028
    },
    {
        "description":  "A very interesting place",
        "type":  "pub",
        "poi_id":  761,
        "lon":  -1.35604,
        "region":  "Hampshire",
        "name":  "Big Cheese",
        "country":  "UK",
        "lat":  50.9207
    },
    {
        "description":  "A very interesting place",
        "type":  "pub",
        "poi_id":  762,
        "lon":  -1.35659,
        "region":  "Hampshire",
        "name":  "Fox and Hounds",
        "country":  "UK",
        "lat":  50.9181
    },
    {
        "description":  "A very interesting place",
        "type":  "pub",
        "poi_id":  763,
        "lon":  -1.37264,
        "region":  "Hampshire",
        "name":  "The Obelisk",
        "country":  "UK",
        "lat":  50.8943
    },
    {
        "description":  "A very interesting place",
        "type":  "pub",
        "poi_id":  764,
        "lon":  -1.33501,
        "region":  "Hampshire",
        "name":  "Hare and Hounds",
        "country":  "UK",
        "lat":  50.9197
    },
    {
        "description":  "A very interesting place",
        "type":  "pub",
        "poi_id":  765,
        "lon":  -1.30588,
        "region":  "Hampshire",
        "name":  "The Rising Sun",
        "country":  "UK",
        "lat":  50.8524
    },
    {
        "description":  "A very interesting place",
        "type":  "pub",
        "poi_id":  766,
        "lon":  -1.35324,
        "region":  "Hampshire",
        "name":  "Stones",
        "country":  "UK",
        "lat":  50.9683
    },
    {
        "description":  "A very interesting place",
        "type":  "pub",
        "poi_id":  767,
        "lon":  -1.35371,
        "region":  "Hampshire",
        "name":  "Humble Plumb",
        "country":  "UK",
        "lat":  50.9168
    },
    {
        "description":  "A very interesting place",
        "type":  "pub",
        "poi_id":  768,
        "lon":  -1.37277,
        "region":  "Hampshire",
        "name":  "Peartree Inn",
        "country":  "UK",
        "lat":  50.9043
    },
    {
        "description":  "A very interesting place",
        "type":  "pub",
        "poi_id":  769,
        "lon":  -1.35828,
        "region":  "Hampshire",
        "name":  "Red Lion",
        "country":  "UK",
        "lat":  50.9144
    },
    {
        "description":  "A very interesting place",
        "type":  "pub",
        "poi_id":  770,
        "lon":  -1.3596,
        "region":  "Hampshire",
        "name":  "The Earl Of Locksley",
        "country":  "UK",
        "lat":  50.904
    },
    {
        "description":  "A very interesting place",
        "type":  "pub",
        "poi_id":  771,
        "lon":  -1.35388,
        "region":  "Hampshire",
        "name":  "Gardeners Arms",
        "country":  "UK",
        "lat":  50.8915
    },
    {
        "description":  "A very interesting place",
        "type":  "pub",
        "poi_id":  772,
        "lon":  -1.35777,
        "region":  "Hampshire",
        "name":  "The Ark",
        "country":  "UK",
        "lat":  50.9292
    },
    {
        "description":  "A very interesting place",
        "type":  "pub",
        "poi_id":  773,
        "lon":  -1.37452,
        "region":  "Hampshire",
        "name":  "The Cricketers",
        "country":  "UK",
        "lat":  50.9614
    },
    {
        "description":  "A very interesting place",
        "type":  "pub",
        "poi_id":  774,
        "lon":  -1.4854,
        "region":  "Hampshire",
        "name":  "The Sun Inn",
        "country":  "UK",
        "lat":  50.9916
    },
    {
        "description":  "A very interesting place",
        "type":  "pub",
        "poi_id":  775,
        "lon":  -1.35413,
        "region":  "Hampshire",
        "name":  "The Chamberlayne Arms",
        "country":  "UK",
        "lat":  50.9661
    },
    {
        "description":  "A very interesting place",
        "type":  "pub",
        "poi_id":  776,
        "lon":  -1.35828,
        "region":  "Hampshire",
        "name":  "The Grantham Arms",
        "country":  "UK",
        "lat":  50.965
    },
    {
        "description":  "A very interesting place",
        "type":  "pub",
        "poi_id":  777,
        "lon":  -1.39656,
        "region":  "Hampshire",
        "name":  "The Bent Brief",
        "country":  "UK",
        "lat":  50.9197
    },
    {
        "description":  "A very interesting place",
        "type":  "pub",
        "poi_id":  778,
        "lon":  -1.35329,
        "region":  "Hampshire",
        "name":  "The Litten Tree",
        "country":  "UK",
        "lat":  50.9679
    },
    {
        "description":  "A very interesting place",
        "type":  "pub",
        "poi_id":  779,
        "lon":  -1.35407,
        "region":  "Hampshire",
        "name":  "Percy Arms",
        "country":  "UK",
        "lat":  50.9155
    },
    {
        "description":  "A very interesting place",
        "type":  "pub",
        "poi_id":  780,
        "lon":  -1.35932,
        "region":  "Hampshire",
        "name":  "Good Companion",
        "country":  "UK",
        "lat":  50.9697
    },
    {
        "description":  "A very interesting place",
        "type":  "pub",
        "poi_id":  781,
        "lon":  -1.34461,
        "region":  "Hampshire",
        "name":  "Exford Arms",
        "country":  "UK",
        "lat":  50.9175
    },
    {
        "description":  "A very interesting place",
        "type":  "pub",
        "poi_id":  782,
        "lon":  -1.35087,
        "region":  "Hampshire",
        "name":  "Ham Farm Pub",
        "country":  "UK",
        "lat":  50.9838
    },
    {
        "description":  "A very interesting place",
        "type":  "restaurant",
        "poi_id":  783,
        "lon":  -1.3505,
        "region":  "Hampshire",
        "name":  "Ham Farm Harvester",
        "country":  "UK",
        "lat":  50.984
    },
    {
        "description":  "A very interesting place",
        "type":  "pub",
        "poi_id":  784,
        "lon":  -1.49231,
        "region":  "Hampshire",
        "name":  "Bishop Blaize",
        "country":  "UK",
        "lat":  50.9894
    },
    {
        "description":  "A very interesting place",
        "type":  "pub",
        "poi_id":  785,
        "lon":  -1.40464,
        "region":  "Hampshire",
        "name":  "Mono",
        "country":  "UK",
        "lat":  50.9124
    },
    {
        "description":  "A very interesting place",
        "type":  "pub",
        "poi_id":  786,
        "lon":  -1.40484,
        "region":  "Hampshire",
        "name":  "Orange Rooms",
        "country":  "UK",
        "lat":  50.9123
    },
    {
        "description":  "A very interesting place",
        "type":  "pub",
        "poi_id":  787,
        "lon":  -1.4504,
        "region":  "Hampshire",
        "name":  "The Pilgrim Inn",
        "country":  "UK",
        "lat":  50.8846
    },
    {
        "description":  "A very interesting place",
        "type":  "pub",
        "poi_id":  788,
        "lon":  -1.48126,
        "region":  "Hampshire",
        "name":  "The Anchor Inn",
        "country":  "UK",
        "lat":  50.912
    },
    {
        "description":  "A very interesting place",
        "type":  "pub",
        "poi_id":  789,
        "lon":  -1.41503,
        "region":  "Hampshire",
        "name":  "The Winston",
        "country":  "UK",
        "lat":  50.9151
    },
    {
        "description":  "A very interesting place",
        "type":  "pub",
        "poi_id":  790,
        "lon":  -1.41335,
        "region":  "Hampshire",
        "name":  "The Blue Keys",
        "country":  "UK",
        "lat":  50.9162
    },
    {
        "description":  "A very interesting place",
        "type":  "pub",
        "poi_id":  791,
        "lon":  -1.41625,
        "region":  "Hampshire",
        "name":  "The Bellemoor",
        "country":  "UK",
        "lat":  50.9275
    },
    {
        "description":  "A very interesting place",
        "type":  "pub",
        "poi_id":  792,
        "lon":  -1.41718,
        "region":  "Hampshire",
        "name":  "Chilworth Arms",
        "country":  "UK",
        "lat":  50.9643
    },
    {
        "description":  "A very interesting place",
        "type":  "pub",
        "poi_id":  793,
        "lon":  -1.42382,
        "region":  "Hampshire",
        "name":  "The Malvern",
        "country":  "UK",
        "lat":  50.9319
    },
    {
        "description":  "A very interesting place",
        "type":  "pub",
        "poi_id":  794,
        "lon":  -1.43739,
        "region":  "Hampshire",
        "name":  "Ice House",
        "country":  "UK",
        "lat":  50.9279
    },
    {
        "description":  "A very interesting place",
        "type":  "pub",
        "poi_id":  795,
        "lon":  -1.43738,
        "region":  "Hampshire",
        "name":  "Baddesley Arms",
        "country":  "UK",
        "lat":  50.9777
    },
    {
        "description":  "A very interesting place",
        "type":  "pub",
        "poi_id":  796,
        "lon":  -1.40355,
        "region":  "Hampshire",
        "name":  "The Platform Tavern",
        "country":  "UK",
        "lat":  50.8964
    },
    {
        "description":  "A very interesting place",
        "type":  "pub",
        "poi_id":  797,
        "lon":  -1.44906,
        "region":  "Hampshire",
        "name":  "The Mountbatten",
        "country":  "UK",
        "lat":  50.9405
    },
    {
        "description":  "A very interesting place",
        "type":  "pub",
        "poi_id":  798,
        "lon":  -1.37074,
        "region":  "Hampshire",
        "name":  "The Hop Inn",
        "country":  "UK",
        "lat":  50.9327
    },
    {
        "description":  "A very interesting place",
        "type":  "pub",
        "poi_id":  799,
        "lon":  -1.30504,
        "region":  "Hampshire",
        "name":  "The Queens Head",
        "country":  "UK",
        "lat":  50.9856
    },
    {
        "description":  "A very interesting place",
        "type":  "pub",
        "poi_id":  800,
        "lon":  -1.4654,
        "region":  "Hampshire",
        "name":  "The Bold Forester",
        "country":  "UK",
        "lat":  50.8749
    },
    {
        "description":  "A very interesting place",
        "type":  "pub",
        "poi_id":  801,
        "lon":  -1.47428,
        "region":  "Hampshire",
        "name":  "Anchor Inn",
        "country":  "UK",
        "lat":  50.9218
    },
    {
        "description":  "A very interesting place",
        "type":  "pub",
        "poi_id":  802,
        "lon":  -1.33348,
        "region":  "Hampshire",
        "name":  "The Hinkler",
        "country":  "UK",
        "lat":  50.9077
    },
    {
        "description":  "A very interesting place",
        "type":  "pub",
        "poi_id":  803,
        "lon":  -1.34855,
        "region":  "Hampshire",
        "name":  "The Bullseye",
        "country":  "UK",
        "lat":  50.8986
    },
    {
        "description":  "A very interesting place",
        "type":  "pub",
        "poi_id":  804,
        "lon":  -1.33119,
        "region":  "Hampshire",
        "name":  "Foresters Arms",
        "country":  "UK",
        "lat":  50.9807
    },
    {
        "description":  "A very interesting place",
        "type":  "pub",
        "poi_id":  805,
        "lon":  -1.33217,
        "region":  "Hampshire",
        "name":  "Longmead Arms",
        "country":  "UK",
        "lat":  50.9765
    },
    {
        "description":  "A very interesting place",
        "type":  "pub",
        "poi_id":  806,
        "lon":  -1.43132,
        "region":  "Hampshire",
        "name":  "Bald Faced Stag",
        "country":  "UK",
        "lat":  50.918
    },
    {
        "description":  "A very interesting place",
        "type":  "pub",
        "poi_id":  807,
        "lon":  -1.49548,
        "region":  "Hampshire",
        "name":  "The Old House at Home",
        "country":  "UK",
        "lat":  50.99
    },
    {
        "description":  "A very interesting place",
        "type":  "pub",
        "poi_id":  808,
        "lon":  -1.49784,
        "region":  "Hampshire",
        "name":  "William IV",
        "country":  "UK",
        "lat":  50.9903
    },
    {
        "description":  "A very interesting place",
        "type":  "pub",
        "poi_id":  809,
        "lon":  -1.42358,
        "region":  "Hampshire",
        "name":  "Wellington Arms",
        "country":  "UK",
        "lat":  50.9124
    },
    {
        "description":  "A very interesting place",
        "type":  "pub",
        "poi_id":  810,
        "lon":  -1.42471,
        "region":  "Hampshire",
        "name":  "The Freemantle",
        "country":  "UK",
        "lat":  50.9134
    },
    {
        "description":  "A very interesting place",
        "type":  "pub",
        "poi_id":  811,
        "lon":  -1.43504,
        "region":  "Hampshire",
        "name":  "Englishman",
        "country":  "UK",
        "lat":  50.9184
    },
    {
        "description":  "A very interesting place",
        "type":  "pub",
        "poi_id":  812,
        "lon":  -1.42925,
        "region":  "Hampshire",
        "name":  "Freemantle Arms",
        "country":  "UK",
        "lat":  50.915
    },
    {
        "description":  "A very interesting place",
        "type":  "pub",
        "poi_id":  813,
        "lon":  -1.41705,
        "region":  "Hampshire",
        "name":  "The Heath (Table Table)",
        "country":  "UK",
        "lat":  50.8512
    },
    {
        "description":  "A very interesting place",
        "type":  "pub",
        "poi_id":  814,
        "lon":  -1.4482,
        "region":  "Hampshire",
        "name":  "Bedes Lea",
        "country":  "UK",
        "lat":  50.9762
    },
    {
        "description":  "A very interesting place",
        "type":  "pub",
        "poi_id":  815,
        "lon":  -1.45476,
        "region":  "Hampshire",
        "name":  "Bricklayers Arms",
        "country":  "UK",
        "lat":  50.924
    },
    {
        "description":  "A very interesting place",
        "type":  "pub",
        "poi_id":  816,
        "lon":  -1.47292,
        "region":  "Hampshire",
        "name":  "The Ship",
        "country":  "UK",
        "lat":  50.9211
    },
    {
        "description":  "A very interesting place",
        "type":  "pub",
        "poi_id":  817,
        "lon":  -1.31836,
        "region":  "Hampshire",
        "name":  "Rising Sun",
        "country":  "UK",
        "lat":  50.9974
    },
    {
        "description":  "A very interesting place",
        "type":  "pub",
        "poi_id":  818,
        "lon":  -1.42695,
        "region":  "Hampshire",
        "name":  "Waterloo Arms",
        "country":  "UK",
        "lat":  50.9113
    },
    {
        "description":  "A very interesting place",
        "type":  "pub",
        "poi_id":  819,
        "lon":  -1.47021,
        "region":  "Hampshire",
        "name":  "Turfcutters Arms",
        "country":  "UK",
        "lat":  50.8024
    },
    {
        "description":  "A very interesting place",
        "type":  "restaurant",
        "poi_id":  821,
        "lon":  -1.41335,
        "region":  "Hampshire",
        "name":  "TGI Fridays",
        "country":  "UK",
        "lat":  50.905
    },
    {
        "description":  "A very interesting place",
        "type":  "pub",
        "poi_id":  822,
        "lon":  -1.38045,
        "region":  "Hampshire",
        "name":  "Ship Inn",
        "country":  "UK",
        "lat":  50.8938
    },
    {
        "description":  "A very interesting place",
        "type":  "restaurant",
        "poi_id":  823,
        "lon":  -1.35175,
        "region":  "Hampshire",
        "name":  "Frankie and Bennys",
        "country":  "UK",
        "lat":  50.967
    },
    {
        "description":  "A very interesting place",
        "type":  "pub",
        "poi_id":  824,
        "lon":  -1.46954,
        "region":  "Hampshire",
        "name":  "The Hunters",
        "country":  "UK",
        "lat":  50.9986
    },
    {
        "description":  "A very interesting place",
        "type":  "pub",
        "poi_id":  826,
        "lon":  -1.32057,
        "region":  "Hampshire",
        "name":  "Southampton Arms",
        "country":  "UK",
        "lat":  50.9324
    },
    {
        "description":  "A very interesting place",
        "type":  "pub",
        "poi_id":  827,
        "lon":  -1.35279,
        "region":  "Hampshire",
        "name":  "Prince Consort",
        "country":  "UK",
        "lat":  50.8724
    },
    {
        "description":  "A very interesting place",
        "type":  "restaurant",
        "poi_id":  828,
        "lon":  -1.40363,
        "region":  "Hampshire",
        "name":  "Zen",
        "country":  "UK",
        "lat":  50.8994
    },
    {
        "description":  "A very interesting place",
        "type":  "pub",
        "poi_id":  829,
        "lon":  -1.40365,
        "region":  "Hampshire",
        "name":  "The Red Lion",
        "country":  "UK",
        "lat":  50.899
    },
    {
        "description":  "A very interesting place",
        "type":  "pub",
        "poi_id":  830,
        "lon":  -1.35072,
        "region":  "Hampshire",
        "name":  "The Wagon Works",
        "country":  "UK",
        "lat":  50.9695
    },
    {
        "description":  "A very interesting place",
        "type":  "pub",
        "poi_id":  831,
        "lon":  -1.31557,
        "region":  "Hampshire",
        "name":  "Linden Tree",
        "country":  "UK",
        "lat":  50.8886
    },
    {
        "description":  "A very interesting place",
        "type":  "pub",
        "poi_id":  832,
        "lon":  -1.47839,
        "region":  "Hampshire",
        "name":  "The King Rufus",
        "country":  "UK",
        "lat":  50.9074
    },
    {
        "description":  "A very interesting place",
        "type":  "pub",
        "poi_id":  833,
        "lon":  -1.4781,
        "region":  "Hampshire",
        "name":  "The Village Bells",
        "country":  "UK",
        "lat":  50.9073
    },
    {
        "description":  "A very interesting place",
        "type":  "pub",
        "poi_id":  834,
        "lon":  -1.44435,
        "region":  "Hampshire",
        "name":  "King George",
        "country":  "UK",
        "lat":  50.9216
    },
    {
        "description":  "A very interesting place",
        "type":  "restaurant",
        "poi_id":  835,
        "lon":  -1.40515,
        "region":  "Hampshire",
        "name":  "Ennios",
        "country":  "UK",
        "lat":  50.8968
    },
    {
        "description":  "A very interesting place",
        "type":  "restaurant",
        "poi_id":  836,
        "lon":  -1.40472,
        "region":  "Hampshire",
        "name":  "La Regata",
        "country":  "UK",
        "lat":  50.8967
    },
    {
        "description":  "A very interesting place",
        "type":  "pub",
        "poi_id":  837,
        "lon":  -1.32754,
        "region":  "Hampshire",
        "name":  "The Manor House",
        "country":  "UK",
        "lat":  50.8891
    },
    {
        "description":  "A very interesting place",
        "type":  "pub",
        "poi_id":  838,
        "lon":  -1.33021,
        "region":  "Hampshire",
        "name":  "The Plough",
        "country":  "UK",
        "lat":  50.8893
    },
    {
        "description":  "A very interesting place",
        "type":  "restaurant",
        "poi_id":  839,
        "lon":  -1.39696,
        "region":  "Hampshire",
        "name":  "Grande Caf????",
        "country":  "UK",
        "lat":  50.8975
    },
    {
        "description":  "A very interesting place",
        "type":  "restaurant",
        "poi_id":  840,
        "lon":  -1.39273,
        "region":  "Hampshire",
        "name":  "La Cantina",
        "country":  "UK",
        "lat":  50.8971
    },
    {
        "description":  "A very interesting place",
        "type":  "pub",
        "poi_id":  841,
        "lon":  -1.40555,
        "region":  "Hampshire",
        "name":  "Gleneagles",
        "country":  "UK",
        "lat":  50.8505
    },
    {
        "description":  "A very interesting place",
        "type":  "pub",
        "poi_id":  842,
        "lon":  -1.41,
        "region":  "Hampshire",
        "name":  "The Fitzhugh",
        "country":  "UK",
        "lat":  50.9146
    },
    {
        "description":  "A very interesting place",
        "type":  "restaurant",
        "poi_id":  843,
        "lon":  -1.39084,
        "region":  "Hampshire",
        "name":  "Banana Wharf",
        "country":  "UK",
        "lat":  50.8968
    },
    {
        "description":  "A very interesting place",
        "type":  "pub",
        "poi_id":  844,
        "lon":  -1.35408,
        "region":  "Hampshire",
        "name":  "The Otter",
        "country":  "UK",
        "lat":  50.9985
    },
    {
        "description":  "A very interesting place",
        "type":  "pub",
        "poi_id":  845,
        "lon":  -1.40056,
        "region":  "Hampshire",
        "name":  "The Croft (Closed)",
        "country":  "UK",
        "lat":  50.861
    },
    {
        "description":  "A very interesting place",
        "type":  "restaurant",
        "poi_id":  846,
        "lon":  -1.3764,
        "region":  "Hampshire",
        "name":  "Sunrise Balti and Tandoori",
        "country":  "UK",
        "lat":  50.9873
    },
    {
        "description":  "A very interesting place",
        "type":  "restaurant",
        "poi_id":  847,
        "lon":  -1.35199,
        "region":  "Hampshire",
        "name":  "Nandos",
        "country":  "UK",
        "lat":  50.9663
    },
    {
        "description":  "A very interesting place",
        "type":  "restaurant",
        "poi_id":  848,
        "lon":  -1.31755,
        "region":  "Hampshire",
        "name":  "Windhover Manor",
        "country":  "UK",
        "lat":  50.8948
    },
    {
        "description":  "A very interesting place",
        "type":  "pub",
        "poi_id":  849,
        "lon":  -1.4969,
        "region":  "Hampshire",
        "name":  "The New Inn",
        "country":  "UK",
        "lat":  50.907
    },
    {
        "description":  "A very interesting place",
        "type":  "pub",
        "poi_id":  850,
        "lon":  -1.37777,
        "region":  "Hampshire",
        "name":  "Grove Tavern",
        "country":  "UK",
        "lat":  50.8916
    },
    {
        "description":  "A very interesting place",
        "type":  "pub",
        "poi_id":  851,
        "lon":  -1.40343,
        "region":  "Hampshire",
        "name":  "Firehouse",
        "country":  "UK",
        "lat":  50.9048
    },
    {
        "description":  "A very interesting place",
        "type":  "pub",
        "poi_id":  852,
        "lon":  -1.40268,
        "region":  "Hampshire",
        "name":  "Glen Bar",
        "country":  "UK",
        "lat":  50.944
    },
    {
        "description":  "A very interesting place",
        "type":  "pub",
        "poi_id":  853,
        "lon":  -1.44282,
        "region":  "Hampshire",
        "name":  "Regents Park",
        "country":  "UK",
        "lat":  50.9158
    },
    {
        "description":  "A very interesting place",
        "type":  "pub",
        "poi_id":  854,
        "lon":  -1.41873,
        "region":  "Hampshire",
        "name":  "Osbourne",
        "country":  "UK",
        "lat":  50.9099
    },
    {
        "description":  "A very interesting place",
        "type":  "pub",
        "poi_id":  855,
        "lon":  -1.40498,
        "region":  "Hampshire",
        "name":  "The Cricketers",
        "country":  "UK",
        "lat":  50.9129
    },
    {
        "description":  "A very interesting place",
        "type":  "pub",
        "poi_id":  856,
        "lon":  -1.42291,
        "region":  "Hampshire",
        "name":  "Key and Anchor",
        "country":  "UK",
        "lat":  50.9093
    },
    {
        "description":  "A very interesting place",
        "type":  "restaurant",
        "poi_id":  857,
        "lon":  -1.49592,
        "region":  "Hampshire",
        "name":  "Prezzo Romsey",
        "country":  "UK",
        "lat":  50.9878
    },
    {
        "description":  "A very interesting place",
        "type":  "pub",
        "poi_id":  858,
        "lon":  -1.49764,
        "region":  "Hampshire",
        "name":  "The Olive Tree",
        "country":  "UK",
        "lat":  50.9895
    },
    {
        "description":  "A very interesting place",
        "type":  "pub",
        "poi_id":  859,
        "lon":  -1.40419,
        "region":  "Hampshire",
        "name":  "Que Pasa",
        "country":  "UK",
        "lat":  50.906
    },
    {
        "description":  "A very interesting place",
        "type":  "pub",
        "poi_id":  860,
        "lon":  -1.40471,
        "region":  "Hampshire",
        "name":  "Yatess",
        "country":  "UK",
        "lat":  50.9066
    },
    {
        "description":  "A very interesting place",
        "type":  "restaurant",
        "poi_id":  861,
        "lon":  -1.40495,
        "region":  "Hampshire",
        "name":  "Namaste Kerala",
        "country":  "UK",
        "lat":  50.907
    },
    {
        "description":  "A very interesting place",
        "type":  "pub",
        "poi_id":  862,
        "lon":  -1.42423,
        "region":  "Hampshire",
        "name":  "The Stile",
        "country":  "UK",
        "lat":  50.915
    },
    {
        "description":  "A very interesting place",
        "type":  "pub",
        "poi_id":  863,
        "lon":  -1.42554,
        "region":  "Hampshire",
        "name":  "The Rover",
        "country":  "UK",
        "lat":  50.916
    },
    {
        "description":  "A very interesting place",
        "type":  "pub",
        "poi_id":  864,
        "lon":  -1.42916,
        "region":  "Hampshire",
        "name":  "Brass Monkey",
        "country":  "UK",
        "lat":  50.9188
    },
    {
        "description":  "A very interesting place",
        "type":  "restaurant",
        "poi_id":  866,
        "lon":  -1.37371,
        "region":  "Hampshire",
        "name":  "Table Table",
        "country":  "UK",
        "lat":  50.9729
    },
    {
        "description":  "A very interesting place",
        "type":  "restaurant",
        "poi_id":  867,
        "lon":  -1.40469,
        "region":  "Hampshire",
        "name":  "La Margherita",
        "country":  "UK",
        "lat":  50.8957
    },
    {
        "description":  "A very interesting place",
        "type":  "pub",
        "poi_id":  868,
        "lon":  -1.39416,
        "region":  "Hampshire",
        "name":  "The Hiltonbury Farmhouse",
        "country":  "UK",
        "lat":  50.9955
    },
    {
        "description":  "A very interesting place",
        "type":  "pub",
        "poi_id":  869,
        "lon":  -1.33992,
        "region":  "Hampshire",
        "name":  "Jolly Sailor",
        "country":  "UK",
        "lat":  50.8271
    },
    {
        "description":  "A very interesting place",
        "type":  "restaurant",
        "poi_id":  870,
        "lon":  -1.41187,
        "region":  "Hampshire",
        "name":  "Finicki Food Company",
        "country":  "UK",
        "lat":  50.9086
    },
    {
        "description":  "A very interesting place",
        "type":  "pub",
        "poi_id":  871,
        "lon":  -1.41074,
        "region":  "Hampshire",
        "name":  "Encore",
        "country":  "UK",
        "lat":  50.9087
    },
    {
        "description":  "A very interesting place",
        "type":  "restaurant",
        "poi_id":  872,
        "lon":  -1.37968,
        "region":  "Hampshire",
        "name":  "Aroma",
        "country":  "UK",
        "lat":  50.8312
    },
    {
        "description":  "A very interesting place",
        "type":  "restaurant",
        "poi_id":  873,
        "lon":  -1.40366,
        "region":  "Hampshire",
        "name":  "El Rancho",
        "country":  "UK",
        "lat":  50.8992
    },
    {
        "description":  "A very interesting place",
        "type":  "pub",
        "poi_id":  874,
        "lon":  -1.40377,
        "region":  "Hampshire",
        "name":  "The Standing Order (JD Wetherspoon)",
        "country":  "UK",
        "lat":  50.9009
    },
    {
        "description":  "A very interesting place",
        "type":  "restaurant",
        "poi_id":  875,
        "lon":  -1.3986,
        "region":  "Hampshire",
        "name":  "Bellinis",
        "country":  "UK",
        "lat":  50.8978
    },
    {
        "description":  "A very interesting place",
        "type":  "pub",
        "poi_id":  876,
        "lon":  -1.39696,
        "region":  "Hampshire",
        "name":  "The London Hotel",
        "country":  "UK",
        "lat":  50.8979
    },
    {
        "description":  "A very interesting place",
        "type":  "restaurant",
        "poi_id":  877,
        "lon":  -1.35369,
        "region":  "Hampshire",
        "name":  "Peking Phoenix",
        "country":  "UK",
        "lat":  50.9693
    },
    {
        "description":  "A very interesting place",
        "type":  "restaurant",
        "poi_id":  878,
        "lon":  -1.35383,
        "region":  "Hampshire",
        "name":  "Nashaa",
        "country":  "UK",
        "lat":  50.9693
    },
    {
        "description":  "A very interesting place",
        "type":  "restaurant",
        "poi_id":  879,
        "lon":  -1.40148,
        "region":  "Hampshire",
        "name":  "La Vista",
        "country":  "UK",
        "lat":  50.873
    },
    {
        "description":  "A very interesting place",
        "type":  "pub",
        "poi_id":  880,
        "lon":  -1.49776,
        "region":  "Hampshire",
        "name":  "The Tavern",
        "country":  "UK",
        "lat":  50.9891
    },
    {
        "description":  "A very interesting place",
        "type":  "pub",
        "poi_id":  881,
        "lon":  -1.49926,
        "region":  "Hampshire",
        "name":  "The Tudor Rose",
        "country":  "UK",
        "lat":  50.9886
    },
    {
        "description":  "A very interesting place",
        "type":  "restaurant",
        "poi_id":  882,
        "lon":  -1.38213,
        "region":  "Hampshire",
        "name":  "Thai Cottage",
        "country":  "UK",
        "lat":  50.9825
    },
    {
        "description":  "A very interesting place",
        "type":  "pub",
        "poi_id":  883,
        "lon":  -1.31169,
        "region":  "Hampshire",
        "name":  "The Ketch Rigger",
        "country":  "UK",
        "lat":  50.8518
    },
    {
        "description":  "A very interesting place",
        "type":  "restaurant",
        "poi_id":  884,
        "lon":  -1.31534,
        "region":  "Hampshire",
        "name":  "Boomerang",
        "country":  "UK",
        "lat":  50.8589
    },
    {
        "description":  "A very interesting place",
        "type":  "pub",
        "poi_id":  885,
        "lon":  -1.31668,
        "region":  "Hampshire",
        "name":  "Ye Olde Whyte Hart",
        "country":  "UK",
        "lat":  50.8587
    },
    {
        "description":  "A very interesting place",
        "type":  "pub",
        "poi_id":  886,
        "lon":  -1.31259,
        "region":  "Hampshire",
        "name":  "The Riverside Bar and Restaurant",
        "country":  "UK",
        "lat":  50.8713
    },
    {
        "description":  "A very interesting place",
        "type":  "restaurant",
        "poi_id":  887,
        "lon":  -1.31902,
        "region":  "Hampshire",
        "name":  "The Cinnamon Bay",
        "country":  "UK",
        "lat":  50.8591
    },
    {
        "description":  "A very interesting place",
        "type":  "pub",
        "poi_id":  888,
        "lon":  -1.39846,
        "region":  "Hampshire",
        "name":  "The Malt and Hops",
        "country":  "UK",
        "lat":  50.8662
    },
    {
        "description":  "A very interesting place",
        "type":  "pub",
        "poi_id":  889,
        "lon":  -1.37528,
        "region":  "Hampshire",
        "name":  "The Station",
        "country":  "UK",
        "lat":  50.918
    },
    {
        "description":  "A very interesting place",
        "type":  "pub",
        "poi_id":  890,
        "lon":  -1.32216,
        "region":  "Hampshire",
        "name":  "The Welcome Inn",
        "country":  "UK",
        "lat":  50.9645
    },
    {
        "description":  "A very interesting place",
        "type":  "pub",
        "poi_id":  891,
        "lon":  -1.30655,
        "region":  "Hampshire",
        "name":  "The New Clock Inn",
        "country":  "UK",
        "lat":  50.9644
    },
    {
        "description":  "A very interesting place",
        "type":  "pub",
        "poi_id":  892,
        "lon":  -1.39923,
        "region":  "Hampshire",
        "name":  "Unit Nightclub",
        "country":  "UK",
        "lat":  50.9104
    },
    {
        "description":  "A very interesting place",
        "type":  "restaurant",
        "poi_id":  893,
        "lon":  -1.41517,
        "region":  "Hampshire",
        "name":  "Capers",
        "country":  "UK",
        "lat":  50.8527
    },
    {
        "description":  "A very interesting place",
        "type":  "restaurant",
        "poi_id":  895,
        "lon":  -1.39848,
        "region":  "Hampshire",
        "name":  "Prezzo",
        "country":  "UK",
        "lat":  50.8983
    },
    {
        "description":  "A very interesting place",
        "type":  "restaurant",
        "poi_id":  896,
        "lon":  -1.39062,
        "region":  "Hampshire",
        "name":  "Saras",
        "country":  "UK",
        "lat":  50.9271
    },
    {
        "description":  "A very interesting place",
        "type":  "pub",
        "poi_id":  897,
        "lon":  -1.38049,
        "region":  "Hampshire",
        "name":  "The Victoria",
        "country":  "UK",
        "lat":  50.8949
    },
    {
        "description":  "A very interesting place",
        "type":  "restaurant",
        "poi_id":  898,
        "lon":  -1.49963,
        "region":  "Hampshire",
        "name":  "La Parissiene",
        "country":  "UK",
        "lat":  50.988
    },
    {
        "description":  "A very interesting place",
        "type":  "restaurant",
        "poi_id":  899,
        "lon":  -1.38006,
        "region":  "Hampshire",
        "name":  "Massala",
        "country":  "UK",
        "lat":  50.8965
    },
    {
        "description":  "A very interesting place",
        "type":  "pub",
        "poi_id":  900,
        "lon":  -1.4209,
        "region":  "Hampshire",
        "name":  "Pig n Whistle",
        "country":  "UK",
        "lat":  50.9122
    },
    {
        "description":  "A very interesting place",
        "type":  "pub",
        "poi_id":  901,
        "lon":  -1.43414,
        "region":  "Hampshire",
        "name":  "The Griffin",
        "country":  "UK",
        "lat":  50.925
    },
    {
        "description":  "A very interesting place",
        "type":  "pub",
        "poi_id":  902,
        "lon":  -1.39588,
        "region":  "Hampshire",
        "name":  "Shooting Star",
        "country":  "UK",
        "lat":  50.9165
    },
    {
        "description":  "A very interesting place",
        "type":  "pub",
        "poi_id":  903,
        "lon":  -1.40448,
        "region":  "Hampshire",
        "name":  "Giddy Bridge",
        "country":  "UK",
        "lat":  50.911
    },
    {
        "description":  "A very interesting place",
        "type":  "pub",
        "poi_id":  904,
        "lon":  -1.40394,
        "region":  "Hampshire",
        "name":  "Avondale House",
        "country":  "UK",
        "lat":  50.9129
    },
    {
        "description":  "A very interesting place",
        "type":  "pub",
        "poi_id":  905,
        "lon":  -1.39688,
        "region":  "Hampshire",
        "name":  "Plume of Feathers",
        "country":  "UK",
        "lat":  50.9051
    },
    {
        "description":  "A very interesting place",
        "type":  "pub",
        "poi_id":  906,
        "lon":  -1.39648,
        "region":  "Hampshire",
        "name":  "The Joiners",
        "country":  "UK",
        "lat":  50.9045
    },
    {
        "description":  "A very interesting place",
        "type":  "restaurant",
        "poi_id":  907,
        "lon":  -1.39957,
        "region":  "Hampshire",
        "name":  "Nicks Restaurant",
        "country":  "UK",
        "lat":  50.9017
    },
    {
        "description":  "A very interesting place",
        "type":  "pub",
        "poi_id":  908,
        "lon":  -1.42045,
        "region":  "Hampshire",
        "name":  "Park Hotel (closed long-term)",
        "country":  "UK",
        "lat":  50.9114
    },
    {
        "description":  "A very interesting place",
        "type":  "restaurant",
        "poi_id":  909,
        "lon":  -1.42655,
        "region":  "Hampshire",
        "name":  "Jewel in the Crown",
        "country":  "UK",
        "lat":  50.9172
    },
    {
        "description":  "A very interesting place",
        "type":  "restaurant",
        "poi_id":  910,
        "lon":  -1.42735,
        "region":  "Hampshire",
        "name":  "Pucchinis",
        "country":  "UK",
        "lat":  50.9179
    },
    {
        "description":  "A very interesting place",
        "type":  "restaurant",
        "poi_id":  911,
        "lon":  -1.43059,
        "region":  "Hampshire",
        "name":  "Kachina",
        "country":  "UK",
        "lat":  50.9199
    },
    {
        "description":  "A very interesting place",
        "type":  "restaurant",
        "poi_id":  912,
        "lon":  -1.43428,
        "region":  "Hampshire",
        "name":  "Spice of Life (B level)",
        "country":  "UK",
        "lat":  50.933
    },
    {
        "description":  "A very interesting place",
        "type":  "pub",
        "poi_id":  913,
        "lon":  -1.43136,
        "region":  "Hampshire",
        "name":  "Shield and Dagger",
        "country":  "UK",
        "lat":  50.9264
    },
    {
        "description":  "A very interesting place",
        "type":  "pub",
        "poi_id":  914,
        "lon":  -1.43259,
        "region":  "Hampshire",
        "name":  "Kings Arms",
        "country":  "UK",
        "lat":  50.9231
    },
    {
        "description":  "A very interesting place",
        "type":  "pub",
        "poi_id":  915,
        "lon":  -1.38101,
        "region":  "Hampshire",
        "name":  "The Waterfront",
        "country":  "UK",
        "lat":  50.9103
    },
    {
        "description":  "A very interesting place",
        "type":  "pub",
        "poi_id":  916,
        "lon":  -1.40471,
        "region":  "Hampshire",
        "name":  "Slug and Lettuce",
        "country":  "UK",
        "lat":  50.9063
    },
    {
        "description":  "A very interesting place",
        "type":  "restaurant",
        "poi_id":  917,
        "lon":  -1.40469,
        "region":  "Hampshire",
        "name":  "Bella Italia",
        "country":  "UK",
        "lat":  50.9064
    },
    {
        "description":  "A very interesting place",
        "type":  "restaurant",
        "poi_id":  918,
        "lon":  -1.40364,
        "region":  "Hampshire",
        "name":  "Supreme Chinese Restaurant",
        "country":  "UK",
        "lat":  50.905
    },
    {
        "description":  "A very interesting place",
        "type":  "pub",
        "poi_id":  919,
        "lon":  -1.33787,
        "region":  "Hampshire",
        "name":  "The Anglers Inn",
        "country":  "UK",
        "lat":  50.9716
    },
    {
        "description":  "A very interesting place",
        "type":  "restaurant",
        "poi_id":  920,
        "lon":  -1.40747,
        "region":  "Hampshire",
        "name":  "Nandos",
        "country":  "UK",
        "lat":  50.9037
    },
    {
        "description":  "A very interesting place",
        "type":  "restaurant",
        "poi_id":  921,
        "lon":  -1.40778,
        "region":  "Hampshire",
        "name":  "Yo! Sushi",
        "country":  "UK",
        "lat":  50.9036
    },
    {
        "description":  "A very interesting place",
        "type":  "restaurant",
        "poi_id":  922,
        "lon":  -1.40737,
        "region":  "Hampshire",
        "name":  "Pizza Hut",
        "country":  "UK",
        "lat":  50.9034
    },
    {
        "description":  "A very interesting place",
        "type":  "restaurant",
        "poi_id":  923,
        "lon":  -1.40733,
        "region":  "Hampshire",
        "name":  "Cafe Giardino",
        "country":  "UK",
        "lat":  50.9037
    },
    {
        "description":  "A very interesting place",
        "type":  "restaurant",
        "poi_id":  924,
        "lon":  -1.40777,
        "region":  "Hampshire",
        "name":  "ASDA Cafe",
        "country":  "UK",
        "lat":  50.906
    },
    {
        "description":  "A very interesting place",
        "type":  "restaurant",
        "poi_id":  925,
        "lon":  -1.46734,
        "region":  "Hampshire",
        "name":  "Mandarin Chef",
        "country":  "UK",
        "lat":  50.9977
    },
    {
        "description":  "A very interesting place",
        "type":  "pub",
        "poi_id":  926,
        "lon":  -1.30535,
        "region":  "Hampshire",
        "name":  "Fishers Pond",
        "country":  "UK",
        "lat":  50.9866
    },
    {
        "description":  "A very interesting place",
        "type":  "restaurant",
        "poi_id":  927,
        "lon":  -1.40703,
        "region":  "Hampshire",
        "name":  "Kutis Royal Thai Pier",
        "country":  "UK",
        "lat":  50.897
    },
    {
        "description":  "A very interesting place",
        "type":  "restaurant",
        "poi_id":  928,
        "lon":  -1.35246,
        "region":  "Hampshire",
        "name":  "Jewels",
        "country":  "UK",
        "lat":  50.9329
    },
    {
        "description":  "A very interesting place",
        "type":  "restaurant",
        "poi_id":  929,
        "lon":  -1.3537,
        "region":  "Hampshire",
        "name":  "Saffron",
        "country":  "UK",
        "lat":  50.9679
    },
    {
        "description":  "A very interesting place",
        "type":  "restaurant",
        "poi_id":  930,
        "lon":  -1.49607,
        "region":  "Hampshire",
        "name":  "Berties",
        "country":  "UK",
        "lat":  50.9887
    },
    {
        "description":  "A very interesting place",
        "type":  "pub",
        "poi_id":  931,
        "lon":  -1.43695,
        "region":  "Hampshire",
        "name":  "Park Inn",
        "country":  "UK",
        "lat":  50.9236
    },
    {
        "description":  "A very interesting place",
        "type":  "pub",
        "poi_id":  932,
        "lon":  -1.48449,
        "region":  "Hampshire",
        "name":  "The Swan Inn",
        "country":  "UK",
        "lat":  50.9162
    },
    {
        "description":  "A very interesting place",
        "type":  "restaurant",
        "poi_id":  933,
        "lon":  -1.48141,
        "region":  "Hampshire",
        "name":  "The Galley Restaurant",
        "country":  "UK",
        "lat":  50.912
    },
    {
        "description":  "A very interesting place",
        "type":  "pub",
        "poi_id":  934,
        "lon":  -1.45103,
        "region":  "Hampshire",
        "name":  "The Roebuck",
        "country":  "UK",
        "lat":  50.8904
    },
    {
        "description":  "A very interesting place",
        "type":  "pub",
        "poi_id":  935,
        "lon":  -1.44774,
        "region":  "Hampshire",
        "name":  "White Horse",
        "country":  "UK",
        "lat":  50.8924
    },
    {
        "description":  "A very interesting place",
        "type":  "restaurant",
        "poi_id":  936,
        "lon":  -1.40016,
        "region":  "Hampshire",
        "name":  "The Thai Corner Restaurant",
        "country":  "UK",
        "lat":  50.8697
    },
    {
        "description":  "A very interesting place",
        "type":  "restaurant",
        "poi_id":  937,
        "lon":  -1.32895,
        "region":  "Hampshire",
        "name":  "Royal Bengal",
        "country":  "UK",
        "lat":  50.862
    },
    {
        "description":  "A very interesting place",
        "type":  "pub",
        "poi_id":  938,
        "lon":  -1.31342,
        "region":  "Hampshire",
        "name":  "The Bugle",
        "country":  "UK",
        "lat":  50.8582
    },
    {
        "description":  "A very interesting place",
        "type":  "pub",
        "poi_id":  939,
        "lon":  -1.31356,
        "region":  "Hampshire",
        "name":  "The King and Queen",
        "country":  "UK",
        "lat":  50.8586
    },
    {
        "description":  "A very interesting place",
        "type":  "pub",
        "poi_id":  940,
        "lon":  -1.31415,
        "region":  "Hampshire",
        "name":  "The Victory Inn",
        "country":  "UK",
        "lat":  50.8588
    },
    {
        "description":  "A very interesting place",
        "type":  "pub",
        "poi_id":  941,
        "lon":  -1.40442,
        "region":  "Hampshire",
        "name":  "Rat and Parrot",
        "country":  "UK",
        "lat":  50.9085
    },
    {
        "description":  "A very interesting place",
        "type":  "pub",
        "poi_id":  942,
        "lon":  -1.40455,
        "region":  "Hampshire",
        "name":  "Goblets",
        "country":  "UK",
        "lat":  50.9088
    },
    {
        "description":  "A very interesting place",
        "type":  "restaurant",
        "poi_id":  943,
        "lon":  -1.37573,
        "region":  "Hampshire",
        "name":  "Bitterne Balti",
        "country":  "UK",
        "lat":  50.9244
    },
    {
        "description":  "A very interesting place",
        "type":  "restaurant",
        "poi_id":  944,
        "lon":  -1.39916,
        "region":  "Hampshire",
        "name":  "Charlie Chans",
        "country":  "UK",
        "lat":  50.8983
    },
    {
        "description":  "A very interesting place",
        "type":  "restaurant",
        "poi_id":  945,
        "lon":  -1.49699,
        "region":  "Hampshire",
        "name":  "Nazs Cuisine",
        "country":  "UK",
        "lat":  50.9889
    },
    {
        "description":  "A very interesting place",
        "type":  "restaurant",
        "poi_id":  946,
        "lon":  -1.4997,
        "region":  "Hampshire",
        "name":  "Purbani Tandoori Restaurant and Take Away",
        "country":  "UK",
        "lat":  50.9882
    },
    {
        "description":  "A very interesting place",
        "type":  "restaurant",
        "poi_id":  947,
        "lon":  -1.49974,
        "region":  "Hampshire",
        "name":  "South Garden Chinese Restaurant",
        "country":  "UK",
        "lat":  50.9883
    },
    {
        "description":  "A very interesting place",
        "type":  "restaurant",
        "poi_id":  948,
        "lon":  -1.44068,
        "region":  "Hampshire",
        "name":  "Water Margin",
        "country":  "UK",
        "lat":  50.9794
    },
    {
        "description":  "A very interesting place",
        "type":  "pub",
        "poi_id":  949,
        "lon":  -1.34532,
        "region":  "Hampshire",
        "name":  "The Master Builder",
        "country":  "UK",
        "lat":  50.9303
    },
    {
        "description":  "A very interesting place",
        "type":  "restaurant",
        "poi_id":  950,
        "lon":  -1.4266,
        "region":  "Hampshire",
        "name":  "Sanjha Restaurant",
        "country":  "UK",
        "lat":  50.9168
    },
    {
        "description":  "test",
        "type":  "test",
        "poi_id":  951,
        "lon":  1,
        "region":  "test",
        "name":  "test",
        "country":  "test",
        "lat":  1
    },
    {
        "description":  "test",
        "type":  "test",
        "poi_id":  952,
        "lon":  1,
        "region":  "test",
        "name":  "test",
        "country":  "test",
        "lat":  1
    },
    {
        "description":  "lovely ;-)",
        "type":  "industrial estate",
        "poi_id":  960,
        "lon":  -1.31209,
        "region":  "Hampshire",
        "name":  "Chalcroft Distribution Park",
        "country":  "UK",
        "lat":  50.9436
    },
    {
        "description":  null,
        "type":  "point",
        "poi_id":  961,
        "lon":  -1.43166,
        "region":  "Southampton",
        "name":  "harbour",
        "country":  "UK",
        "lat":  50.9058
    },
    {
        "description":  null,
        "type":  "Point",
        "poi_id":  962,
        "lon":  -1.38994,
        "region":  "Southampton",
        "name":  "Britannia Wharf",
        "country":  "UK",
        "lat":  50.9047
    },
    {
        "description":  "Port",
        "type":  "Port",
        "poi_id":  1009,
        "lon":  -1.44513,
        "region":  "Southampton",
        "name":  "Port of Southampton",
        "country":  "UK",
        "lat":  50.9095
    },
    {
        "description":  "highest hill in sussex. great views",
        "type":  "hill",
        "poi_id":  1010,
        "lon":  45719.3,
        "region":  "Sussex",
        "name":  "Blackdown",
        "country":  "UK",
        "lat":  51.0578
    },
    {
        "description":  "Colorado fourteener accessible via the Barr Trail. ",
        "type":  "mountain",
        "poi_id":  1011,
        "lon":  -105.044,
        "region":  "Colorado",
        "name":  "Pikes Peak",
        "country":  "USA",
        "lat":  38.84
    },
    {
        "description":  "nice apparently. we will find out soon",
        "type":  "town",
        "poi_id":  1012,
        "lon":  -0.112953,
        "region":  "Hautes-Pyrenees",
        "name":  "Cauterets",
        "country":  "France",
        "lat":  42.8893
    },
    {
        "description":  "dark and mysterious",
        "type":  "moor",
        "poi_id":  1013,
        "lon":  -3.96606,
        "region":  "Devon",
        "name":  "Dartmoor",
        "country":  "UK",
        "lat":  50.6529
    },
    {
        "description":  "nice pub",
        "type":  "pub",
        "poi_id":  1014,
        "lon":  -1.4011,
        "region":  "Hampshire",
        "name":  "The Crown",
        "country":  "UK",
        "lat":  50.9319
    },
    {
        "description":  "Quality coffee and food",
        "type":  "restaurant",
        "poi_id":  1016,
        "lon":  -1.47879,
        "region":  "Hampshire",
        "name":  "Costa Coffee",
        "country":  "UK",
        "lat":  51.208
    },
    {
        "description":  "Quality coffee and food",
        "type":  "restaurant",
        "poi_id":  1017,
        "lon":  -1.47879,
        "region":  "Hampshire",
        "name":  "Costa Coffee",
        "country":  "UK",
        "lat":  51.208
    },
    {
        "description":  "Cosy pub with fire place",
        "type":  "pub",
        "poi_id":  1018,
        "lon":  -1.8223,
        "region":  "Hampshire",
        "name":  "Steve\u0027s Inn",
        "country":  "UK",
        "lat":  51.3194
    },
    {
        "description":  "Quality coffee and food",
        "type":  "restaurant",
        "poi_id":  1019,
        "lon":  -1.33,
        "region":  "Hampshire",
        "name":  "Costa Coffee",
        "country":  "UK",
        "lat":  51.3889
    },
    {
        "description":  "Has a castle",
        "type":  "town",
        "poi_id":  1020,
        "lon":  -1.3677,
        "region":  "Berkshire",
        "name":  "Highclere",
        "country":  "UK",
        "lat":  51.3469
    },
    {
        "description":  "Quick bites",
        "type":  "restaurant",
        "poi_id":  1021,
        "lon":  -1.4062,
        "region":  "berkshire",
        "name":  "Small Eats",
        "country":  "UK",
        "lat":  51.3254
    },
    {
        "description":  "A town",
        "type":  "town",
        "poi_id":  1025,
        "lon":  -1.2366,
        "region":  "Berkshire",
        "name":  "Kingsclere",
        "country":  "UK",
        "lat":  51.3237
    },
    {
        "description":  "Town",
        "type":  "town",
        "poi_id":  1026,
        "lon":  -1.2682,
        "region":  "Berkshire",
        "name":  "Cold Ash",
        "country":  "UK",
        "lat":  51.4249
    },
    {
        "description":  "Great place",
        "type":  "town",
        "poi_id":  1027,
        "lon":  -1.3176,
        "region":  "Berkshire",
        "name":  "Newbury",
        "country":  "UK",
        "lat":  51.3992
    },
    {
        "description":  "Not great",
        "type":  "town",
        "poi_id":  1028,
        "lon":  -1.2668,
        "region":  "Berkshire",
        "name":  "Thatcham",
        "country":  "UK",
        "lat":  51.4052
    },
    {
        "description":  "posh",
        "type":  "town",
        "poi_id":  1030,
        "lon":  -1.3269,
        "region":  "Berkshire",
        "name":  "Donnington",
        "country":  "UK",
        "lat":  51.4227
    },
    {
        "description":  "Lots of fields",
        "type":  "town",
        "poi_id":  1032,
        "lon":  -1.3712,
        "region":  "berkshire",
        "name":  "Enborne",
        "country":  "UK",
        "lat":  51.3899
    },
    {
        "description":  "Lots of fields",
        "type":  "town",
        "poi_id":  1033,
        "lon":  -1.3712,
        "region":  "berkshire",
        "name":  "Enborne",
        "country":  "UK",
        "lat":  51.3899
    },
    {
        "description":  "very small place",
        "type":  "town",
        "poi_id":  1034,
        "lon":  -1.4508,
        "region":  "Berkshire",
        "name":  "Hurstbourne Tarrant",
        "country":  "UK",
        "lat":  51.2769
    },
    {
        "description":  "Has a very nice pub restaurant ",
        "type":  "town",
        "poi_id":  1038,
        "lon":  -1.2007,
        "region":  "Berkshire",
        "name":  "Midgham",
        "country":  "UK",
        "lat":  51.4062
    },
    {
        "description":  "FinalTest",
        "type":  "town",
        "poi_id":  1040,
        "lon":  -1.4,
        "region":  "Hampshire",
        "name":  "Test00",
        "country":  "UK",
        "lat":  50.9
    },
    {
        "description":  "Does this still work after changes",
        "type":  "town",
        "poi_id":  1041,
        "lon":  -1.4,
        "region":  "Hampshire",
        "name":  "Test1001",
        "country":  "UK",
        "lat":  50.9
    },
    {
        "description":  "test",
        "type":  "pub",
        "poi_id":  1043,
        "lon":  -1.3326,
        "region":  "berkshire",
        "name":  "chieveley",
        "country":  "UK",
        "lat":  51.4601
    },
    {
        "description":  "test",
        "type":  "town",
        "poi_id":  1044,
        "lon":  -1,
        "region":  "Hampshire",
        "name":  "east meon",
        "country":  "UK",
        "lat":  51
    },
    {
        "description":  "a nice pub",
        "type":  "pub",
        "poi_id":  1045,
        "lon":  -1.01,
        "region":  "Hampshire",
        "name":  "downs inn",
        "country":  "UK",
        "lat":  51.01
    },
    {
        "description":  "a nice pub",
        "type":  "pub",
        "poi_id":  1046,
        "lon":  -1.012,
        "region":  "Hampshire",
        "name":  "downs inn",
        "country":  "UK",
        "lat":  51.012
    },
    {
        "description":  "a nice village",
        "type":  "town",
        "poi_id":  1047,
        "lon":  -0.72,
        "region":  "Sussex",
        "name":  "fernhurst",
        "country":  "UK",
        "lat":  51.05
    },
    {
        "description":  "test",
        "type":  "pub",
        "poi_id":  1048,
        "lon":  -1.02,
        "region":  "Hampshire",
        "name":  "testpub",
        "country":  "UK",
        "lat":  51.02
    },
    {
        "description":  "small place",
        "type":  "town",
        "poi_id":  1049,
        "lon":  -1.345,
        "region":  "Berkshire",
        "name":  "Whitchurch",
        "country":  "UK",
        "lat":  51.224
    },
    {
        "description":  "Testing",
        "type":  "pub",
        "poi_id":  1063,
        "lon":  -1.4,
        "region":  "Berkshire",
        "name":  "Testing",
        "country":  "UK",
        "lat":  51.1
    },
    {
        "description":  "Testing",
        "type":  "pub",
        "poi_id":  1064,
        "lon":  -1.4,
        "region":  "Berkshire",
        "name":  "Testing",
        "country":  "UK",
        "lat":  51.1
    },
    {
        "description":  "lost city",
        "type":  "city",
        "poi_id":  1068,
        "lon":  181,
        "region":  "Pacific Ocean",
        "name":  "Pacifica",
        "country":  "Pacific State",
        "lat":  0
    },
    {
        "description":  "nice",
        "type":  "pub",
        "poi_id":  1070,
        "lon":  -0.723724,
        "region":  "sussex",
        "name":  "Southdown ",
        "country":  "england",
        "lat":  50.9432
    },
    {
        "description":  "Lots of road humps",
        "type":  "town",
        "poi_id":  1071,
        "lon":  -1.34829,
        "region":  "Berkshire",
        "name":  "Speen",
        "country":  "UK",
        "lat":  51.4076
    },
    {
        "description":  "Exceptional coffee and light bites",
        "type":  "restaurant",
        "poi_id":  1074,
        "lon":  -1.31758,
        "region":  "Berkshire",
        "name":  "Costa",
        "country":  "UK",
        "lat":  51.3826
    },
    {
        "description":  "Pizza and salad bar",
        "type":  "restaurant",
        "poi_id":  1075,
        "lon":  -1.31766,
        "region":  "Berkshire",
        "name":  "Pizza Hut",
        "country":  "UK",
        "lat":  51.3848
    },
    {
        "description":  "Cafe",
        "type":  "restaurant",
        "poi_id":  1076,
        "lon":  -1.31988,
        "region":  "Berkshire",
        "name":  "Sainsbury\u0027s Cafe",
        "country":  "UK",
        "lat":  51.3992
    },
    {
        "description":  "Italian food",
        "type":  "restaurant",
        "poi_id":  1077,
        "lon":  -1.32329,
        "region":  "Berkshire",
        "name":  "Ask",
        "country":  "UK",
        "lat":  51.4013
    },
    {
        "description":  "Spanish food",
        "type":  "restaurant",
        "poi_id":  1078,
        "lon":  -1.3231,
        "region":  "Berkshire",
        "name":  "La Tasca",
        "country":  "UK",
        "lat":  51.4013
    },
    {
        "description":  "Gets really busy Friday and Saturday nights",
        "type":  "pub",
        "poi_id":  1079,
        "lon":  -1.32303,
        "region":  "Berkshire",
        "name":  "Canal Bar",
        "country":  "UK",
        "lat":  51.4013
    },
    {
        "description":  "Get the sandwich you want",
        "type":  "restaurant",
        "poi_id":  1080,
        "lon":  -1.3236,
        "region":  "Berkshire",
        "name":  "Subway",
        "country":  "UK",
        "lat":  51.3997
    },
    {
        "description":  "lost city",
        "type":  "lost city",
        "poi_id":  1082,
        "lon":  179,
        "region":  "Pacifica",
        "name":  "Pacifica",
        "country":  "Pacifica",
        "lat":  30
    },
    {
        "description":  "small isolated village. ",
        "type":  "city",
        "poi_id":  1083,
        "lon":  -0.567307,
        "region":  "Sussex",
        "name":  "Plaistow",
        "country":  "UK",
        "lat":  51.0657
    },
    {
        "description":  "not a city really. home of the watercress line",
        "type":  "city",
        "poi_id":  1084,
        "lon":  -1.07803,
        "region":  "hampshire",
        "name":  "Ropley",
        "country":  "england",
        "lat":  51.0719
    }
]
